{"type":"FeatureCollection","crs":{"type":"name","properties":{"name":"urn:ogc:def:crs:OGC:1.3:CRS84"}},"features":[{"type":"Feature","properties":{"prefcode":8,"prefname":"茨城県","citycode":8546,"cityname":"猿島郡境町"},"geometry":{"coordinates":[139.80846,36.110662],"type":"Point"}}
,{"type":"Feature","properties":{"prefcode":8,"prefname":"茨城県","citycode":8542,"cityname":"猿島郡五霞町"},"geometry":{"coordinates":[139.74768,36.108452],"type":"Point"}}
,{"type":"Feature","properties":{"prefcode":8,"prefname":"茨城県","citycode":8447,"cityname":"稲敷郡河内町"},"geometry":{"coordinates":[140.28283,35.884448],"type":"Point"}}
,{"type":"Feature","properties":{"prefcode":8,"prefname":"茨城県","citycode":8443,"cityname":"稲敷郡阿見町"},"geometry":{"coordinates":[140.22514,36.012862],"type":"Point"}}
,{"type":"Feature","properties":{"prefcode":8,"prefname":"茨城県","citycode":8442,"cityname":"稲敷郡美浦村"},"geometry":{"coordinates":[140.33140,36.016667],"type":"Point"}}
,{"type":"Feature","properties":{"prefcode":8,"prefname":"茨城県","citycode":8341,"cityname":"那珂郡東海村"},"geometry":{"coordinates":[140.58448,36.460632],"type":"Point"}}
,{"type":"Feature","properties":{"prefcode":8,"prefname":"茨城県","citycode":8521,"cityname":"結城郡八千代町"},"geometry":{"coordinates":[139.89436,36.179980],"type":"Point"}}
,{"type":"Feature","properties":{"prefcode":8,"prefname":"茨城県","citycode":8236,"cityname":"小美玉市"},"geometry":{"coordinates":[140.35894,36.202187],"type":"Point"}}
,{"type":"Feature","properties":{"prefcode":8,"prefname":"茨城県","citycode":8235,"cityname":"つくばみらい市"},"geometry":{"coordinates":[140.03744,35.982301],"type":"Point"}}
,{"type":"Feature","properties":{"prefcode":8,"prefname":"茨城県","citycode":8234,"cityname":"鉾田市"},"geometry":{"coordinates":[140.51830,36.173390],"type":"Point"}}
,{"type":"Feature","properties":{"prefcode":8,"prefname":"茨城県","citycode":8233,"cityname":"行方市"},"geometry":{"coordinates":[140.46828,36.066351],"type":"Point"}}
,{"type":"Feature","properties":{"prefcode":8,"prefname":"茨城県","citycode":8232,"cityname":"神栖市"},"geometry":{"coordinates":[140.71447,35.848641],"type":"Point"}}
,{"type":"Feature","properties":{"prefcode":8,"prefname":"茨城県","citycode":8231,"cityname":"桜川市"},"geometry":{"coordinates":[140.10786,36.327323],"type":"Point"}}
,{"type":"Feature","properties":{"prefcode":8,"prefname":"茨城県","citycode":8230,"cityname":"かすみがうら市"},"geometry":{"coordinates":[140.29513,36.113044],"type":"Point"}}
,{"type":"Feature","properties":{"prefcode":8,"prefname":"茨城県","citycode":8229,"cityname":"稲敷市"},"geometry":{"coordinates":[140.37288,35.948353],"type":"Point"}}
,{"type":"Feature","properties":{"prefcode":8,"prefname":"茨城県","citycode":8228,"cityname":"坂東市"},"geometry":{"coordinates":[139.88547,36.065366],"type":"Point"}}
,{"type":"Feature","properties":{"prefcode":8,"prefname":"茨城県","citycode":8227,"cityname":"筑西市"},"geometry":{"coordinates":[139.98855,36.289267],"type":"Point"}}
,{"type":"Feature","properties":{"prefcode":8,"prefname":"茨城県","citycode":8226,"cityname":"那珂市"},"geometry":{"coordinates":[140.47654,36.467821],"type":"Point"}}
,{"type":"Feature","properties":{"prefcode":8,"prefname":"茨城県","citycode":8225,"cityname":"常陸大宮市"},"geometry":{"coordinates":[140.34093,36.612871],"type":"Point"}}
,{"type":"Feature","properties":{"prefcode":8,"prefname":"茨城県","citycode":8224,"cityname":"守谷市"},"geometry":{"coordinates":[139.97414,35.948121],"type":"Point"}}
,{"type":"Feature","properties":{"prefcode":8,"prefname":"茨城県","citycode":8223,"cityname":"潮来市"},"geometry":{"coordinates":[140.56004,35.961995],"type":"Point"}}
,{"type":"Feature","properties":{"prefcode":8,"prefname":"茨城県","citycode":8222,"cityname":"鹿嶋市"},"geometry":{"coordinates":[140.62366,35.998673],"type":"Point"}}
,{"type":"Feature","properties":{"prefcode":8,"prefname":"茨城県","citycode":8221,"cityname":"ひたちなか市"},"geometry":{"coordinates":[140.55702,36.396282],"type":"Point"}}
,{"type":"Feature","properties":{"prefcode":8,"prefname":"茨城県","citycode":8220,"cityname":"つくば市"},"geometry":{"coordinates":[140.08208,36.102757],"type":"Point"}}
,{"type":"Feature","properties":{"prefcode":8,"prefname":"茨城県","citycode":8219,"cityname":"牛久市"},"geometry":{"coordinates":[140.18743,35.971114],"type":"Point"}}
,{"type":"Feature","properties":{"prefcode":8,"prefname":"茨城県","citycode":8217,"cityname":"取手市"},"geometry":{"coordinates":[140.07939,35.912677],"type":"Point"}}
,{"type":"Feature","properties":{"prefcode":8,"prefname":"茨城県","citycode":8216,"cityname":"笠間市"},"geometry":{"coordinates":[140.26992,36.356814],"type":"Point"}}
,{"type":"Feature","properties":{"prefcode":8,"prefname":"茨城県","citycode":8215,"cityname":"北茨城市"},"geometry":{"coordinates":[140.68580,36.841108],"type":"Point"}}
,{"type":"Feature","properties":{"prefcode":8,"prefname":"茨城県","citycode":8310,"cityname":"東茨城郡城里町"},"geometry":{"coordinates":[140.31035,36.478782],"type":"Point"}}
,{"type":"Feature","properties":{"prefcode":8,"prefname":"茨城県","citycode":8214,"cityname":"高萩市"},"geometry":{"coordinates":[140.62240,36.770190],"type":"Point"}}
,{"type":"Feature","properties":{"prefcode":8,"prefname":"茨城県","citycode":8309,"cityname":"東茨城郡大洗町"},"geometry":{"coordinates":[140.55529,36.298611],"type":"Point"}}
,{"type":"Feature","properties":{"prefcode":8,"prefname":"茨城県","citycode":8212,"cityname":"常陸太田市"},"geometry":{"coordinates":[140.50585,36.651205],"type":"Point"}}
,{"type":"Feature","properties":{"prefcode":8,"prefname":"茨城県","citycode":8211,"cityname":"常総市"},"geometry":{"coordinates":[139.96292,36.062551],"type":"Point"}}
,{"type":"Feature","properties":{"prefcode":8,"prefname":"茨城県","citycode":8210,"cityname":"下妻市"},"geometry":{"coordinates":[139.96477,36.186320],"type":"Point"}}
,{"type":"Feature","properties":{"prefcode":8,"prefname":"茨城県","citycode":8208,"cityname":"龍ケ崎市"},"geometry":{"coordinates":[140.17379,35.928326],"type":"Point"}}
,{"type":"Feature","properties":{"prefcode":8,"prefname":"茨城県","citycode":8207,"cityname":"結城市"},"geometry":{"coordinates":[139.86485,36.260081],"type":"Point"}}
,{"type":"Feature","properties":{"prefcode":8,"prefname":"茨城県","citycode":8302,"cityname":"東茨城郡茨城町"},"geometry":{"coordinates":[140.43248,36.280801],"type":"Point"}}
,{"type":"Feature","properties":{"prefcode":8,"prefname":"茨城県","citycode":8205,"cityname":"石岡市"},"geometry":{"coordinates":[140.22270,36.225153],"type":"Point"}}
,{"type":"Feature","properties":{"prefcode":8,"prefname":"茨城県","citycode":8204,"cityname":"古河市"},"geometry":{"coordinates":[139.77778,36.179435],"type":"Point"}}
,{"type":"Feature","properties":{"prefcode":8,"prefname":"茨城県","citycode":8203,"cityname":"土浦市"},"geometry":{"coordinates":[140.19253,36.097917],"type":"Point"}}
,{"type":"Feature","properties":{"prefcode":8,"prefname":"茨城県","citycode":8202,"cityname":"日立市"},"geometry":{"coordinates":[140.61779,36.620803],"type":"Point"}}
,{"type":"Feature","properties":{"prefcode":8,"prefname":"茨城県","citycode":8201,"cityname":"水戸市"},"geometry":{"coordinates":[140.43450,36.370739],"type":"Point"}}
,{"type":"Feature","properties":{"prefcode":8,"prefname":"茨城県","citycode":8564,"cityname":"北相馬郡利根町"},"geometry":{"coordinates":[140.17213,35.866779],"type":"Point"}}
,{"type":"Feature","properties":{"prefcode":8,"prefname":"茨城県","citycode":8364,"cityname":"久慈郡大子町"},"geometry":{"coordinates":[140.34687,36.797911],"type":"Point"}}
]}