{"type":"FeatureCollection","crs":{"type":"name","properties":{"name":"urn:ogc:def:crs:OGC:1.3:CRS84"}},"features":[{"type":"Feature","properties":{"prefcode":44,"prefname":"大分県","citycode":44461,"cityname":"玖珠郡九重町"},"geometry":{"coordinates":[131.21368,33.190910],"type":"Point"}}
,{"type":"Feature","properties":{"prefcode":44,"prefname":"大分県","citycode":44214,"cityname":"国東市"},"geometry":{"coordinates":[131.65009,33.565475],"type":"Point"}}
,{"type":"Feature","properties":{"prefcode":44,"prefname":"大分県","citycode":44213,"cityname":"由布市"},"geometry":{"coordinates":[131.38463,33.209797],"type":"Point"}}
,{"type":"Feature","properties":{"prefcode":44,"prefname":"大分県","citycode":44212,"cityname":"豊後大野市"},"geometry":{"coordinates":[131.51061,32.973242],"type":"Point"}}
,{"type":"Feature","properties":{"prefcode":44,"prefname":"大分県","citycode":44211,"cityname":"宇佐市"},"geometry":{"coordinates":[131.33805,33.450140],"type":"Point"}}
,{"type":"Feature","properties":{"prefcode":44,"prefname":"大分県","citycode":44210,"cityname":"杵築市"},"geometry":{"coordinates":[131.54053,33.447307],"type":"Point"}}
,{"type":"Feature","properties":{"prefcode":44,"prefname":"大分県","citycode":44209,"cityname":"豊後高田市"},"geometry":{"coordinates":[131.50635,33.577981],"type":"Point"}}
,{"type":"Feature","properties":{"prefcode":44,"prefname":"大分県","citycode":44208,"cityname":"竹田市"},"geometry":{"coordinates":[131.32847,32.998761],"type":"Point"}}
,{"type":"Feature","properties":{"prefcode":44,"prefname":"大分県","citycode":44207,"cityname":"津久見市"},"geometry":{"coordinates":[131.88976,33.078442],"type":"Point"}}
,{"type":"Feature","properties":{"prefcode":44,"prefname":"大分県","citycode":44206,"cityname":"臼杵市"},"geometry":{"coordinates":[131.75101,33.076604],"type":"Point"}}
,{"type":"Feature","properties":{"prefcode":44,"prefname":"大分県","citycode":44205,"cityname":"佐伯市"},"geometry":{"coordinates":[131.79479,32.888295],"type":"Point"}}
,{"type":"Feature","properties":{"prefcode":44,"prefname":"大分県","citycode":44204,"cityname":"日田市"},"geometry":{"coordinates":[130.95014,33.243686],"type":"Point"}}
,{"type":"Feature","properties":{"prefcode":44,"prefname":"大分県","citycode":44203,"cityname":"中津市"},"geometry":{"coordinates":[131.12806,33.466449],"type":"Point"}}
,{"type":"Feature","properties":{"prefcode":44,"prefname":"大分県","citycode":44202,"cityname":"別府市"},"geometry":{"coordinates":[131.45244,33.286010],"type":"Point"}}
,{"type":"Feature","properties":{"prefcode":44,"prefname":"大分県","citycode":44201,"cityname":"大分市"},"geometry":{"coordinates":[131.64675,33.181550],"type":"Point"}}
,{"type":"Feature","properties":{"prefcode":44,"prefname":"大分県","citycode":44341,"cityname":"速見郡日出町"},"geometry":{"coordinates":[131.52610,33.376062],"type":"Point"}}
,{"type":"Feature","properties":{"prefcode":44,"prefname":"大分県","citycode":44322,"cityname":"東国東郡姫島村"},"geometry":{"coordinates":[131.66641,33.727604],"type":"Point"}}
,{"type":"Feature","properties":{"prefcode":44,"prefname":"大分県","citycode":44462,"cityname":"玖珠郡玖珠町"},"geometry":{"coordinates":[131.16263,33.303321],"type":"Point"}}
]}