{"type":"FeatureCollection","crs":{"type":"name","properties":{"name":"urn:ogc:def:crs:OGC:1.3:CRS84"}},"features":[{"type":"Feature","properties":{"prefcode":13,"prefname":"東京都","citycode":13109,"cityname":"品川区"},"geometry":{"coordinates":[139.73446,35.612073],"type":"Point"}}
,{"type":"Feature","properties":{"prefcode":13,"prefname":"東京都","citycode":13204,"cityname":"三鷹市"},"geometry":{"coordinates":[139.56055,35.683854],"type":"Point"}}
,{"type":"Feature","properties":{"prefcode":13,"prefname":"東京都","citycode":13108,"cityname":"江東区"},"geometry":{"coordinates":[139.81367,35.652604],"type":"Point"}}
,{"type":"Feature","properties":{"prefcode":13,"prefname":"東京都","citycode":13203,"cityname":"武蔵野市"},"geometry":{"coordinates":[139.55938,35.707986],"type":"Point"}}
,{"type":"Feature","properties":{"prefcode":13,"prefname":"東京都","citycode":13107,"cityname":"墨田区"},"geometry":{"coordinates":[139.81683,35.714423],"type":"Point"}}
,{"type":"Feature","properties":{"prefcode":13,"prefname":"東京都","citycode":13202,"cityname":"立川市"},"geometry":{"coordinates":[139.40119,35.714087],"type":"Point"}}
,{"type":"Feature","properties":{"prefcode":13,"prefname":"東京都","citycode":13106,"cityname":"台東区"},"geometry":{"coordinates":[139.78472,35.715741],"type":"Point"}}
,{"type":"Feature","properties":{"prefcode":13,"prefname":"東京都","citycode":13201,"cityname":"八王子市"},"geometry":{"coordinates":[139.29129,35.658296],"type":"Point"}}
,{"type":"Feature","properties":{"prefcode":13,"prefname":"東京都","citycode":13105,"cityname":"文京区"},"geometry":{"coordinates":[139.74659,35.718182],"type":"Point"}}
,{"type":"Feature","properties":{"prefcode":13,"prefname":"東京都","citycode":13104,"cityname":"新宿区"},"geometry":{"coordinates":[139.70699,35.699755],"type":"Point"}}
,{"type":"Feature","properties":{"prefcode":13,"prefname":"東京都","citycode":13199,"cityname":"境界未定地域"},"geometry":{"coordinates":[139.81250,35.598214],"type":"Point"}}
,{"type":"Feature","properties":{"prefcode":13,"prefname":"東京都","citycode":13103,"cityname":"港区"},"geometry":{"coordinates":[139.74343,35.649893],"type":"Point"}}
,{"type":"Feature","properties":{"prefcode":13,"prefname":"東京都","citycode":13102,"cityname":"中央区"},"geometry":{"coordinates":[139.77708,35.669643],"type":"Point"}}
,{"type":"Feature","properties":{"prefcode":13,"prefname":"東京都","citycode":13101,"cityname":"千代田区"},"geometry":{"coordinates":[139.75625,35.688690],"type":"Point"}}
,{"type":"Feature","properties":{"prefcode":13,"prefname":"東京都","citycode":13382,"cityname":"三宅支庁御蔵島村"},"geometry":{"coordinates":[139.60504,33.876210],"type":"Point"}}
,{"type":"Feature","properties":{"prefcode":13,"prefname":"東京都","citycode":13381,"cityname":"三宅支庁三宅村"},"geometry":{"coordinates":[139.52174,34.084800],"type":"Point"}}
,{"type":"Feature","properties":{"prefcode":13,"prefname":"東京都","citycode":13364,"cityname":"大島支庁神津島村"},"geometry":{"coordinates":[139.10102,34.176453],"type":"Point"}}
,{"type":"Feature","properties":{"prefcode":13,"prefname":"東京都","citycode":13363,"cityname":"大島支庁新島村"},"geometry":{"coordinates":[139.25605,34.372266],"type":"Point"}}
,{"type":"Feature","properties":{"prefcode":13,"prefname":"東京都","citycode":13362,"cityname":"大島支庁利島村"},"geometry":{"coordinates":[139.27986,34.523611],"type":"Point"}}
,{"type":"Feature","properties":{"prefcode":13,"prefname":"東京都","citycode":13361,"cityname":"大島支庁大島町"},"geometry":{"coordinates":[139.39807,34.737879],"type":"Point"}}
,{"type":"Feature","properties":{"prefcode":13,"prefname":"東京都","citycode":13421,"cityname":"小笠原支庁小笠原村"},"geometry":{"coordinates":[142.17152,26.470269],"type":"Point"}}
,{"type":"Feature","properties":{"prefcode":13,"prefname":"東京都","citycode":13229,"cityname":"西東京市"},"geometry":{"coordinates":[139.54712,35.735897],"type":"Point"}}
,{"type":"Feature","properties":{"prefcode":13,"prefname":"東京都","citycode":13228,"cityname":"あきる野市"},"geometry":{"coordinates":[139.22708,35.733690],"type":"Point"}}
,{"type":"Feature","properties":{"prefcode":13,"prefname":"東京都","citycode":13227,"cityname":"羽村市"},"geometry":{"coordinates":[139.31480,35.762061],"type":"Point"}}
,{"type":"Feature","properties":{"prefcode":13,"prefname":"東京都","citycode":13225,"cityname":"稲城市"},"geometry":{"coordinates":[139.49456,35.632930],"type":"Point"}}
,{"type":"Feature","properties":{"prefcode":13,"prefname":"東京都","citycode":13224,"cityname":"多摩市"},"geometry":{"coordinates":[139.43661,35.629167],"type":"Point"}}
,{"type":"Feature","properties":{"prefcode":13,"prefname":"東京都","citycode":13223,"cityname":"武蔵村山市"},"geometry":{"coordinates":[139.38510,35.750321],"type":"Point"}}
,{"type":"Feature","properties":{"prefcode":13,"prefname":"東京都","citycode":13222,"cityname":"東久留米市"},"geometry":{"coordinates":[139.51821,35.752717],"type":"Point"}}
,{"type":"Feature","properties":{"prefcode":13,"prefname":"東京都","citycode":13221,"cityname":"清瀬市"},"geometry":{"coordinates":[139.52054,35.781548],"type":"Point"}}
,{"type":"Feature","properties":{"prefcode":13,"prefname":"東京都","citycode":13220,"cityname":"東大和市"},"geometry":{"coordinates":[139.42500,35.752244],"type":"Point"}}
,{"type":"Feature","properties":{"prefcode":13,"prefname":"東京都","citycode":13219,"cityname":"狛江市"},"geometry":{"coordinates":[139.57734,35.635937],"type":"Point"}}
,{"type":"Feature","properties":{"prefcode":13,"prefname":"東京都","citycode":13218,"cityname":"福生市"},"geometry":{"coordinates":[139.33750,35.735000],"type":"Point"}}
,{"type":"Feature","properties":{"prefcode":13,"prefname":"東京都","citycode":13123,"cityname":"江戸川区"},"geometry":{"coordinates":[139.87491,35.695148],"type":"Point"}}
,{"type":"Feature","properties":{"prefcode":13,"prefname":"東京都","citycode":13122,"cityname":"葛飾区"},"geometry":{"coordinates":[139.85648,35.755401],"type":"Point"}}
,{"type":"Feature","properties":{"prefcode":13,"prefname":"東京都","citycode":13121,"cityname":"足立区"},"geometry":{"coordinates":[139.79583,35.778739],"type":"Point"}}
,{"type":"Feature","properties":{"prefcode":13,"prefname":"東京都","citycode":13215,"cityname":"国立市"},"geometry":{"coordinates":[139.44081,35.687010],"type":"Point"}}
,{"type":"Feature","properties":{"prefcode":13,"prefname":"東京都","citycode":13120,"cityname":"練馬区"},"geometry":{"coordinates":[139.61819,35.749316],"type":"Point"}}
,{"type":"Feature","properties":{"prefcode":13,"prefname":"東京都","citycode":13214,"cityname":"国分寺市"},"geometry":{"coordinates":[139.46220,35.706151],"type":"Point"}}
,{"type":"Feature","properties":{"prefcode":13,"prefname":"東京都","citycode":13119,"cityname":"板橋区"},"geometry":{"coordinates":[139.67742,35.772704],"type":"Point"}}
,{"type":"Feature","properties":{"prefcode":13,"prefname":"東京都","citycode":13308,"cityname":"西多摩郡奥多摩町"},"geometry":{"coordinates":[139.05544,35.821791],"type":"Point"}}
,{"type":"Feature","properties":{"prefcode":13,"prefname":"東京都","citycode":13213,"cityname":"東村山市"},"geometry":{"coordinates":[139.47277,35.758929],"type":"Point"}}
,{"type":"Feature","properties":{"prefcode":13,"prefname":"東京都","citycode":13118,"cityname":"荒川区"},"geometry":{"coordinates":[139.77887,35.740278],"type":"Point"}}
,{"type":"Feature","properties":{"prefcode":13,"prefname":"東京都","citycode":13402,"cityname":"八丈支庁青ヶ島村"},"geometry":{"coordinates":[140.05194,31.388937],"type":"Point"}}
,{"type":"Feature","properties":{"prefcode":13,"prefname":"東京都","citycode":13307,"cityname":"西多摩郡檜原村"},"geometry":{"coordinates":[139.10451,35.725549],"type":"Point"}}
,{"type":"Feature","properties":{"prefcode":13,"prefname":"東京都","citycode":13212,"cityname":"日野市"},"geometry":{"coordinates":[139.40089,35.662698],"type":"Point"}}
,{"type":"Feature","properties":{"prefcode":13,"prefname":"東京都","citycode":13117,"cityname":"北区"},"geometry":{"coordinates":[139.73059,35.764474],"type":"Point"}}
,{"type":"Feature","properties":{"prefcode":13,"prefname":"東京都","citycode":13401,"cityname":"八丈支庁八丈町"},"geometry":{"coordinates":[139.78589,33.108033],"type":"Point"}}
,{"type":"Feature","properties":{"prefcode":13,"prefname":"東京都","citycode":13116,"cityname":"豊島区"},"geometry":{"coordinates":[139.71425,35.731833],"type":"Point"}}
,{"type":"Feature","properties":{"prefcode":13,"prefname":"東京都","citycode":13211,"cityname":"小平市"},"geometry":{"coordinates":[139.47625,35.728929],"type":"Point"}}
,{"type":"Feature","properties":{"prefcode":13,"prefname":"東京都","citycode":13305,"cityname":"西多摩郡日の出町"},"geometry":{"coordinates":[139.22582,35.757971],"type":"Point"}}
,{"type":"Feature","properties":{"prefcode":13,"prefname":"東京都","citycode":13115,"cityname":"杉並区"},"geometry":{"coordinates":[139.62475,35.696333],"type":"Point"}}
,{"type":"Feature","properties":{"prefcode":13,"prefname":"東京都","citycode":13210,"cityname":"小金井市"},"geometry":{"coordinates":[139.51042,35.703770],"type":"Point"}}
,{"type":"Feature","properties":{"prefcode":13,"prefname":"東京都","citycode":13114,"cityname":"中野区"},"geometry":{"coordinates":[139.66211,35.710938],"type":"Point"}}
,{"type":"Feature","properties":{"prefcode":13,"prefname":"東京都","citycode":13209,"cityname":"町田市"},"geometry":{"coordinates":[139.42357,35.578708],"type":"Point"}}
,{"type":"Feature","properties":{"prefcode":13,"prefname":"東京都","citycode":13303,"cityname":"西多摩郡瑞穂町"},"geometry":{"coordinates":[139.34859,35.772984],"type":"Point"}}
,{"type":"Feature","properties":{"prefcode":13,"prefname":"東京都","citycode":13113,"cityname":"渋谷区"},"geometry":{"coordinates":[139.69375,35.667778],"type":"Point"}}
,{"type":"Feature","properties":{"prefcode":13,"prefname":"東京都","citycode":13208,"cityname":"調布市"},"geometry":{"coordinates":[139.55250,35.659583],"type":"Point"}}
,{"type":"Feature","properties":{"prefcode":13,"prefname":"東京都","citycode":13207,"cityname":"昭島市"},"geometry":{"coordinates":[139.36505,35.709414],"type":"Point"}}
,{"type":"Feature","properties":{"prefcode":13,"prefname":"東京都","citycode":13112,"cityname":"世田谷区"},"geometry":{"coordinates":[139.63489,35.639082],"type":"Point"}}
,{"type":"Feature","properties":{"prefcode":13,"prefname":"東京都","citycode":13111,"cityname":"大田区"},"geometry":{"coordinates":[139.73864,35.567339],"type":"Point"}}
,{"type":"Feature","properties":{"prefcode":13,"prefname":"東京都","citycode":13206,"cityname":"府中市"},"geometry":{"coordinates":[139.48352,35.670833],"type":"Point"}}
,{"type":"Feature","properties":{"prefcode":13,"prefname":"東京都","citycode":13110,"cityname":"目黒区"},"geometry":{"coordinates":[139.68901,35.632328],"type":"Point"}}
,{"type":"Feature","properties":{"prefcode":13,"prefname":"東京都","citycode":13205,"cityname":"青梅市"},"geometry":{"coordinates":[139.23708,35.803665],"type":"Point"}}
]}