{"type":"FeatureCollection","crs":{"type":"name","properties":{"name":"urn:ogc:def:crs:OGC:1.3:CRS84"}},"features":[{"type":"Feature","properties":{"prefcode":41,"prefname":"佐賀県","citycode":41401,"cityname":"西松浦郡有田町"},"geometry":{"coordinates":[129.86674,33.197749],"type":"Point"}}
,{"type":"Feature","properties":{"prefcode":41,"prefname":"佐賀県","citycode":41210,"cityname":"神埼市"},"geometry":{"coordinates":[130.35216,33.345047],"type":"Point"}}
,{"type":"Feature","properties":{"prefcode":41,"prefname":"佐賀県","citycode":41209,"cityname":"嬉野市"},"geometry":{"coordinates":[130.01607,33.095996],"type":"Point"}}
,{"type":"Feature","properties":{"prefcode":41,"prefname":"佐賀県","citycode":41208,"cityname":"小城市"},"geometry":{"coordinates":[130.19680,33.276155],"type":"Point"}}
,{"type":"Feature","properties":{"prefcode":41,"prefname":"佐賀県","citycode":41207,"cityname":"鹿島市"},"geometry":{"coordinates":[130.09461,33.059447],"type":"Point"}}
,{"type":"Feature","properties":{"prefcode":41,"prefname":"佐賀県","citycode":41441,"cityname":"藤津郡太良町"},"geometry":{"coordinates":[130.15234,32.995226],"type":"Point"}}
,{"type":"Feature","properties":{"prefcode":41,"prefname":"佐賀県","citycode":41206,"cityname":"武雄市"},"geometry":{"coordinates":[129.99777,33.200496],"type":"Point"}}
,{"type":"Feature","properties":{"prefcode":41,"prefname":"佐賀県","citycode":41205,"cityname":"伊万里市"},"geometry":{"coordinates":[129.88729,33.303798],"type":"Point"}}
,{"type":"Feature","properties":{"prefcode":41,"prefname":"佐賀県","citycode":41346,"cityname":"三養基郡みやき町"},"geometry":{"coordinates":[130.44375,33.328333],"type":"Point"}}
,{"type":"Feature","properties":{"prefcode":41,"prefname":"佐賀県","citycode":41204,"cityname":"多久市"},"geometry":{"coordinates":[130.10449,33.277514],"type":"Point"}}
,{"type":"Feature","properties":{"prefcode":41,"prefname":"佐賀県","citycode":41345,"cityname":"三養基郡上峰町"},"geometry":{"coordinates":[130.42277,33.331845],"type":"Point"}}
,{"type":"Feature","properties":{"prefcode":41,"prefname":"佐賀県","citycode":41203,"cityname":"鳥栖市"},"geometry":{"coordinates":[130.49319,33.378611],"type":"Point"}}
,{"type":"Feature","properties":{"prefcode":41,"prefname":"佐賀県","citycode":41202,"cityname":"唐津市"},"geometry":{"coordinates":[129.98104,33.431247],"type":"Point"}}
,{"type":"Feature","properties":{"prefcode":41,"prefname":"佐賀県","citycode":41201,"cityname":"佐賀市"},"geometry":{"coordinates":[130.26696,33.324291],"type":"Point"}}
,{"type":"Feature","properties":{"prefcode":41,"prefname":"佐賀県","citycode":41341,"cityname":"三養基郡基山町"},"geometry":{"coordinates":[130.50799,33.424306],"type":"Point"}}
,{"type":"Feature","properties":{"prefcode":41,"prefname":"佐賀県","citycode":41387,"cityname":"東松浦郡玄海町"},"geometry":{"coordinates":[129.86573,33.476006],"type":"Point"}}
,{"type":"Feature","properties":{"prefcode":41,"prefname":"佐賀県","citycode":41425,"cityname":"杵島郡白石町"},"geometry":{"coordinates":[130.14474,33.165146],"type":"Point"}}
,{"type":"Feature","properties":{"prefcode":41,"prefname":"佐賀県","citycode":41424,"cityname":"杵島郡江北町"},"geometry":{"coordinates":[130.15952,33.218056],"type":"Point"}}
,{"type":"Feature","properties":{"prefcode":41,"prefname":"佐賀県","citycode":41423,"cityname":"杵島郡大町町"},"geometry":{"coordinates":[130.11696,33.216865],"type":"Point"}}
,{"type":"Feature","properties":{"prefcode":41,"prefname":"佐賀県","citycode":41327,"cityname":"神埼郡吉野ヶ里町"},"geometry":{"coordinates":[130.39754,33.360480],"type":"Point"}}
]}