{"type":"FeatureCollection","crs":{"type":"name","properties":{"name":"urn:ogc:def:crs:OGC:1.3:CRS84"}},"features":[{"type":"Feature","properties":{"prefcode":14,"prefname":"神奈川県","citycode":14153,"cityname":"相模原市南区"},"geometry":{"coordinates":[139.40375,35.525139],"type":"Point"}}
,{"type":"Feature","properties":{"prefcode":14,"prefname":"神奈川県","citycode":14342,"cityname":"中郡二宮町"},"geometry":{"coordinates":[139.24770,35.307675],"type":"Point"}}
,{"type":"Feature","properties":{"prefcode":14,"prefname":"神奈川県","citycode":14152,"cityname":"相模原市中央区"},"geometry":{"coordinates":[139.36667,35.562500],"type":"Point"}}
,{"type":"Feature","properties":{"prefcode":14,"prefname":"神奈川県","citycode":14341,"cityname":"中郡大磯町"},"geometry":{"coordinates":[139.28958,35.317778],"type":"Point"}}
,{"type":"Feature","properties":{"prefcode":14,"prefname":"神奈川県","citycode":14151,"cityname":"相模原市緑区"},"geometry":{"coordinates":[139.19736,35.570697],"type":"Point"}}
,{"type":"Feature","properties":{"prefcode":14,"prefname":"神奈川県","citycode":14137,"cityname":"川崎市麻生区"},"geometry":{"coordinates":[139.49578,35.598740],"type":"Point"}}
,{"type":"Feature","properties":{"prefcode":14,"prefname":"神奈川県","citycode":14136,"cityname":"川崎市宮前区"},"geometry":{"coordinates":[139.57722,35.585887],"type":"Point"}}
,{"type":"Feature","properties":{"prefcode":14,"prefname":"神奈川県","citycode":14135,"cityname":"川崎市多摩区"},"geometry":{"coordinates":[139.55089,35.618690],"type":"Point"}}
,{"type":"Feature","properties":{"prefcode":14,"prefname":"神奈川県","citycode":14134,"cityname":"川崎市高津区"},"geometry":{"coordinates":[139.61641,35.590885],"type":"Point"}}
,{"type":"Feature","properties":{"prefcode":14,"prefname":"神奈川県","citycode":14133,"cityname":"川崎市中原区"},"geometry":{"coordinates":[139.65417,35.574306],"type":"Point"}}
,{"type":"Feature","properties":{"prefcode":14,"prefname":"神奈川県","citycode":14132,"cityname":"川崎市幸区"},"geometry":{"coordinates":[139.68125,35.545833],"type":"Point"}}
,{"type":"Feature","properties":{"prefcode":14,"prefname":"神奈川県","citycode":14321,"cityname":"高座郡寒川町"},"geometry":{"coordinates":[139.38438,35.379167],"type":"Point"}}
,{"type":"Feature","properties":{"prefcode":14,"prefname":"神奈川県","citycode":14131,"cityname":"川崎市川崎区"},"geometry":{"coordinates":[139.73867,35.512760],"type":"Point"}}
,{"type":"Feature","properties":{"prefcode":14,"prefname":"神奈川県","citycode":14218,"cityname":"綾瀬市"},"geometry":{"coordinates":[139.43092,35.438816],"type":"Point"}}
,{"type":"Feature","properties":{"prefcode":14,"prefname":"神奈川県","citycode":14217,"cityname":"南足柄市"},"geometry":{"coordinates":[139.07004,35.310524],"type":"Point"}}
,{"type":"Feature","properties":{"prefcode":14,"prefname":"神奈川県","citycode":14216,"cityname":"座間市"},"geometry":{"coordinates":[139.40841,35.487500],"type":"Point"}}
,{"type":"Feature","properties":{"prefcode":14,"prefname":"神奈川県","citycode":14215,"cityname":"海老名市"},"geometry":{"coordinates":[139.39405,35.439329],"type":"Point"}}
,{"type":"Feature","properties":{"prefcode":14,"prefname":"神奈川県","citycode":14214,"cityname":"伊勢原市"},"geometry":{"coordinates":[139.29342,35.409539],"type":"Point"}}
,{"type":"Feature","properties":{"prefcode":14,"prefname":"神奈川県","citycode":14213,"cityname":"大和市"},"geometry":{"coordinates":[139.45542,35.473611],"type":"Point"}}
,{"type":"Feature","properties":{"prefcode":14,"prefname":"神奈川県","citycode":14118,"cityname":"横浜市都筑区"},"geometry":{"coordinates":[139.58038,35.541570],"type":"Point"}}
,{"type":"Feature","properties":{"prefcode":14,"prefname":"神奈川県","citycode":14402,"cityname":"愛甲郡清川村"},"geometry":{"coordinates":[139.22928,35.488436],"type":"Point"}}
,{"type":"Feature","properties":{"prefcode":14,"prefname":"神奈川県","citycode":14212,"cityname":"厚木市"},"geometry":{"coordinates":[139.32363,35.465210],"type":"Point"}}
,{"type":"Feature","properties":{"prefcode":14,"prefname":"神奈川県","citycode":14117,"cityname":"横浜市青葉区"},"geometry":{"coordinates":[139.52384,35.559877],"type":"Point"}}
,{"type":"Feature","properties":{"prefcode":14,"prefname":"神奈川県","citycode":14401,"cityname":"愛甲郡愛川町"},"geometry":{"coordinates":[139.29911,35.528274],"type":"Point"}}
,{"type":"Feature","properties":{"prefcode":14,"prefname":"神奈川県","citycode":14211,"cityname":"秦野市"},"geometry":{"coordinates":[139.20358,35.400604],"type":"Point"}}
,{"type":"Feature","properties":{"prefcode":14,"prefname":"神奈川県","citycode":14116,"cityname":"横浜市泉区"},"geometry":{"coordinates":[139.49882,35.421284],"type":"Point"}}
,{"type":"Feature","properties":{"prefcode":14,"prefname":"神奈川県","citycode":14210,"cityname":"三浦市"},"geometry":{"coordinates":[139.64087,35.164744],"type":"Point"}}
,{"type":"Feature","properties":{"prefcode":14,"prefname":"神奈川県","citycode":14115,"cityname":"横浜市栄区"},"geometry":{"coordinates":[139.55742,35.360677],"type":"Point"}}
,{"type":"Feature","properties":{"prefcode":14,"prefname":"神奈川県","citycode":14114,"cityname":"横浜市瀬谷区"},"geometry":{"coordinates":[139.48708,35.471389],"type":"Point"}}
,{"type":"Feature","properties":{"prefcode":14,"prefname":"神奈川県","citycode":14113,"cityname":"横浜市緑区"},"geometry":{"coordinates":[139.52500,35.515079],"type":"Point"}}
,{"type":"Feature","properties":{"prefcode":14,"prefname":"神奈川県","citycode":14208,"cityname":"逗子市"},"geometry":{"coordinates":[139.59030,35.298132],"type":"Point"}}
,{"type":"Feature","properties":{"prefcode":14,"prefname":"神奈川県","citycode":14112,"cityname":"横浜市旭区"},"geometry":{"coordinates":[139.52793,35.477976],"type":"Point"}}
,{"type":"Feature","properties":{"prefcode":14,"prefname":"神奈川県","citycode":14207,"cityname":"茅ヶ崎市"},"geometry":{"coordinates":[139.40861,35.345833],"type":"Point"}}
,{"type":"Feature","properties":{"prefcode":14,"prefname":"神奈川県","citycode":14301,"cityname":"三浦郡葉山町"},"geometry":{"coordinates":[139.60250,35.270833],"type":"Point"}}
,{"type":"Feature","properties":{"prefcode":14,"prefname":"神奈川県","citycode":14111,"cityname":"横浜市港南区"},"geometry":{"coordinates":[139.57898,35.393561],"type":"Point"}}
,{"type":"Feature","properties":{"prefcode":14,"prefname":"神奈川県","citycode":14206,"cityname":"小田原市"},"geometry":{"coordinates":[139.14358,35.262721],"type":"Point"}}
,{"type":"Feature","properties":{"prefcode":14,"prefname":"神奈川県","citycode":14110,"cityname":"横浜市戸塚区"},"geometry":{"coordinates":[139.52989,35.401591],"type":"Point"}}
,{"type":"Feature","properties":{"prefcode":14,"prefname":"神奈川県","citycode":14205,"cityname":"藤沢市"},"geometry":{"coordinates":[139.45907,35.367892],"type":"Point"}}
,{"type":"Feature","properties":{"prefcode":14,"prefname":"神奈川県","citycode":14109,"cityname":"横浜市港北区"},"geometry":{"coordinates":[139.62188,35.526736],"type":"Point"}}
,{"type":"Feature","properties":{"prefcode":14,"prefname":"神奈川県","citycode":14204,"cityname":"鎌倉市"},"geometry":{"coordinates":[139.53729,35.330972],"type":"Point"}}
,{"type":"Feature","properties":{"prefcode":14,"prefname":"神奈川県","citycode":14108,"cityname":"横浜市金沢区"},"geometry":{"coordinates":[139.62609,35.349275],"type":"Point"}}
,{"type":"Feature","properties":{"prefcode":14,"prefname":"神奈川県","citycode":14203,"cityname":"平塚市"},"geometry":{"coordinates":[139.31989,35.351420],"type":"Point"}}
,{"type":"Feature","properties":{"prefcode":14,"prefname":"神奈川県","citycode":14107,"cityname":"横浜市磯子区"},"geometry":{"coordinates":[139.61597,35.393287],"type":"Point"}}
,{"type":"Feature","properties":{"prefcode":14,"prefname":"神奈川県","citycode":14106,"cityname":"横浜市保土ケ谷区"},"geometry":{"coordinates":[139.57668,35.462093],"type":"Point"}}
,{"type":"Feature","properties":{"prefcode":14,"prefname":"神奈川県","citycode":14201,"cityname":"横須賀市"},"geometry":{"coordinates":[139.65676,35.251142],"type":"Point"}}
,{"type":"Feature","properties":{"prefcode":14,"prefname":"神奈川県","citycode":14105,"cityname":"横浜市南区"},"geometry":{"coordinates":[139.60375,35.428500],"type":"Point"}}
,{"type":"Feature","properties":{"prefcode":14,"prefname":"神奈川県","citycode":14104,"cityname":"横浜市中区"},"geometry":{"coordinates":[139.66174,35.427947],"type":"Point"}}
,{"type":"Feature","properties":{"prefcode":14,"prefname":"神奈川県","citycode":14103,"cityname":"横浜市西区"},"geometry":{"coordinates":[139.62232,35.458333],"type":"Point"}}
,{"type":"Feature","properties":{"prefcode":14,"prefname":"神奈川県","citycode":14102,"cityname":"横浜市神奈川区"},"geometry":{"coordinates":[139.61966,35.485264],"type":"Point"}}
,{"type":"Feature","properties":{"prefcode":14,"prefname":"神奈川県","citycode":14101,"cityname":"横浜市鶴見区"},"geometry":{"coordinates":[139.68081,35.495541],"type":"Point"}}
,{"type":"Feature","properties":{"prefcode":14,"prefname":"神奈川県","citycode":14384,"cityname":"足柄下郡湯河原町"},"geometry":{"coordinates":[139.08145,35.166325],"type":"Point"}}
,{"type":"Feature","properties":{"prefcode":14,"prefname":"神奈川県","citycode":14383,"cityname":"足柄下郡真鶴町"},"geometry":{"coordinates":[139.13520,35.162500],"type":"Point"}}
,{"type":"Feature","properties":{"prefcode":14,"prefname":"神奈川県","citycode":14382,"cityname":"足柄下郡箱根町"},"geometry":{"coordinates":[139.03233,35.232184],"type":"Point"}}
,{"type":"Feature","properties":{"prefcode":14,"prefname":"神奈川県","citycode":14366,"cityname":"足柄上郡開成町"},"geometry":{"coordinates":[139.12321,35.336309],"type":"Point"}}
,{"type":"Feature","properties":{"prefcode":14,"prefname":"神奈川県","citycode":14364,"cityname":"足柄上郡山北町"},"geometry":{"coordinates":[139.04756,35.424217],"type":"Point"}}
,{"type":"Feature","properties":{"prefcode":14,"prefname":"神奈川県","citycode":14363,"cityname":"足柄上郡松田町"},"geometry":{"coordinates":[139.12966,35.391591],"type":"Point"}}
,{"type":"Feature","properties":{"prefcode":14,"prefname":"神奈川県","citycode":14362,"cityname":"足柄上郡大井町"},"geometry":{"coordinates":[139.16487,35.334339],"type":"Point"}}
,{"type":"Feature","properties":{"prefcode":14,"prefname":"神奈川県","citycode":14361,"cityname":"足柄上郡中井町"},"geometry":{"coordinates":[139.21518,35.335119],"type":"Point"}}
]}