{"type":"FeatureCollection","crs":{"type":"name","properties":{"name":"urn:ogc:def:crs:OGC:1.3:CRS84"}},"features":[{"type":"Feature","properties":{"prefcode":4,"prefname":"宮城県","citycode":4362,"cityname":"亘理郡山元町"},"geometry":{"coordinates":[140.88551,37.947159],"type":"Point"}}
,{"type":"Feature","properties":{"prefcode":4,"prefname":"宮城県","citycode":4361,"cityname":"亘理郡亘理町"},"geometry":{"coordinates":[140.87453,38.042518],"type":"Point"}}
,{"type":"Feature","properties":{"prefcode":4,"prefname":"宮城県","citycode":4445,"cityname":"加美郡加美町"},"geometry":{"coordinates":[140.69909,38.593134],"type":"Point"}}
,{"type":"Feature","properties":{"prefcode":4,"prefname":"宮城県","citycode":4444,"cityname":"加美郡色麻町"},"geometry":{"coordinates":[140.77294,38.517813],"type":"Point"}}
,{"type":"Feature","properties":{"prefcode":4,"prefname":"宮城県","citycode":4341,"cityname":"伊具郡丸森町"},"geometry":{"coordinates":[140.75239,37.873637],"type":"Point"}}
,{"type":"Feature","properties":{"prefcode":4,"prefname":"宮城県","citycode":4424,"cityname":"黒川郡大衡村"},"geometry":{"coordinates":[140.87311,38.479167],"type":"Point"}}
,{"type":"Feature","properties":{"prefcode":4,"prefname":"宮城県","citycode":4423,"cityname":"黒川郡富谷町"},"geometry":{"coordinates":[140.90139,38.379977],"type":"Point"}}
,{"type":"Feature","properties":{"prefcode":4,"prefname":"宮城県","citycode":4422,"cityname":"黒川郡大郷町"},"geometry":{"coordinates":[140.99923,38.434649],"type":"Point"}}
,{"type":"Feature","properties":{"prefcode":4,"prefname":"宮城県","citycode":4421,"cityname":"黒川郡大和町"},"geometry":{"coordinates":[140.82280,38.429955],"type":"Point"}}
,{"type":"Feature","properties":{"prefcode":4,"prefname":"宮城県","citycode":4324,"cityname":"柴田郡川崎町"},"geometry":{"coordinates":[140.59111,38.197591],"type":"Point"}}
,{"type":"Feature","properties":{"prefcode":4,"prefname":"宮城県","citycode":4323,"cityname":"柴田郡柴田町"},"geometry":{"coordinates":[140.78834,38.087162],"type":"Point"}}
,{"type":"Feature","properties":{"prefcode":4,"prefname":"宮城県","citycode":4322,"cityname":"柴田郡村田町"},"geometry":{"coordinates":[140.72612,38.127386],"type":"Point"}}
,{"type":"Feature","properties":{"prefcode":4,"prefname":"宮城県","citycode":4606,"cityname":"本吉郡南三陸町"},"geometry":{"coordinates":[141.46005,38.683205],"type":"Point"}}
,{"type":"Feature","properties":{"prefcode":4,"prefname":"宮城県","citycode":4321,"cityname":"柴田郡大河原町"},"geometry":{"coordinates":[140.71814,38.052744],"type":"Point"}}
,{"type":"Feature","properties":{"prefcode":4,"prefname":"宮城県","citycode":4505,"cityname":"遠田郡美里町"},"geometry":{"coordinates":[141.09292,38.520903],"type":"Point"}}
,{"type":"Feature","properties":{"prefcode":4,"prefname":"宮城県","citycode":4501,"cityname":"遠田郡涌谷町"},"geometry":{"coordinates":[141.15312,38.559821],"type":"Point"}}
,{"type":"Feature","properties":{"prefcode":4,"prefname":"宮城県","citycode":4406,"cityname":"宮城郡利府町"},"geometry":{"coordinates":[140.98625,38.342885],"type":"Point"}}
,{"type":"Feature","properties":{"prefcode":4,"prefname":"宮城県","citycode":4215,"cityname":"大崎市"},"geometry":{"coordinates":[140.84998,38.677405],"type":"Point"}}
,{"type":"Feature","properties":{"prefcode":4,"prefname":"宮城県","citycode":4214,"cityname":"東松島市"},"geometry":{"coordinates":[141.17453,38.403316],"type":"Point"}}
,{"type":"Feature","properties":{"prefcode":4,"prefname":"宮城県","citycode":4404,"cityname":"宮城郡七ヶ浜町"},"geometry":{"coordinates":[141.06351,38.301210],"type":"Point"}}
,{"type":"Feature","properties":{"prefcode":4,"prefname":"宮城県","citycode":4213,"cityname":"栗原市"},"geometry":{"coordinates":[140.94196,38.808172],"type":"Point"}}
,{"type":"Feature","properties":{"prefcode":4,"prefname":"宮城県","citycode":4212,"cityname":"登米市"},"geometry":{"coordinates":[141.25854,38.685444],"type":"Point"}}
,{"type":"Feature","properties":{"prefcode":4,"prefname":"宮城県","citycode":4211,"cityname":"岩沼市"},"geometry":{"coordinates":[140.87332,38.109005],"type":"Point"}}
,{"type":"Feature","properties":{"prefcode":4,"prefname":"宮城県","citycode":4401,"cityname":"宮城郡松島町"},"geometry":{"coordinates":[141.07846,38.399853],"type":"Point"}}
,{"type":"Feature","properties":{"prefcode":4,"prefname":"宮城県","citycode":4209,"cityname":"多賀城市"},"geometry":{"coordinates":[140.99890,38.297059],"type":"Point"}}
,{"type":"Feature","properties":{"prefcode":4,"prefname":"宮城県","citycode":4208,"cityname":"角田市"},"geometry":{"coordinates":[140.78260,37.989032],"type":"Point"}}
,{"type":"Feature","properties":{"prefcode":4,"prefname":"宮城県","citycode":4207,"cityname":"名取市"},"geometry":{"coordinates":[140.86608,38.168225],"type":"Point"}}
,{"type":"Feature","properties":{"prefcode":4,"prefname":"宮城県","citycode":4302,"cityname":"刈田郡七ヶ宿町"},"geometry":{"coordinates":[140.40649,38.018999],"type":"Point"}}
,{"type":"Feature","properties":{"prefcode":4,"prefname":"宮城県","citycode":4206,"cityname":"白石市"},"geometry":{"coordinates":[140.57884,37.996526],"type":"Point"}}
,{"type":"Feature","properties":{"prefcode":4,"prefname":"宮城県","citycode":4301,"cityname":"刈田郡蔵王町"},"geometry":{"coordinates":[140.59153,38.105689],"type":"Point"}}
,{"type":"Feature","properties":{"prefcode":4,"prefname":"宮城県","citycode":4205,"cityname":"気仙沼市"},"geometry":{"coordinates":[141.53941,38.872685],"type":"Point"}}
,{"type":"Feature","properties":{"prefcode":4,"prefname":"宮城県","citycode":4203,"cityname":"塩竈市"},"geometry":{"coordinates":[141.05997,38.329344],"type":"Point"}}
,{"type":"Feature","properties":{"prefcode":4,"prefname":"宮城県","citycode":4202,"cityname":"石巻市"},"geometry":{"coordinates":[141.38769,38.467833],"type":"Point"}}
,{"type":"Feature","properties":{"prefcode":4,"prefname":"宮城県","citycode":4581,"cityname":"牡鹿郡女川町"},"geometry":{"coordinates":[141.47781,38.436597],"type":"Point"}}
,{"type":"Feature","properties":{"prefcode":4,"prefname":"宮城県","citycode":4105,"cityname":"仙台市泉区"},"geometry":{"coordinates":[140.80173,38.353425],"type":"Point"}}
,{"type":"Feature","properties":{"prefcode":4,"prefname":"宮城県","citycode":4104,"cityname":"仙台市太白区"},"geometry":{"coordinates":[140.68321,38.260604],"type":"Point"}}
,{"type":"Feature","properties":{"prefcode":4,"prefname":"宮城県","citycode":4103,"cityname":"仙台市若林区"},"geometry":{"coordinates":[140.93947,38.223116],"type":"Point"}}
,{"type":"Feature","properties":{"prefcode":4,"prefname":"宮城県","citycode":4102,"cityname":"仙台市宮城野区"},"geometry":{"coordinates":[140.95917,38.275278],"type":"Point"}}
,{"type":"Feature","properties":{"prefcode":4,"prefname":"宮城県","citycode":4101,"cityname":"仙台市青葉区"},"geometry":{"coordinates":[140.70444,38.330075],"type":"Point"}}
]}