{"type":"FeatureCollection","crs":{"type":"name","properties":{"name":"urn:ogc:def:crs:OGC:1.3:CRS84"}},"features":[{"type":"Feature","properties":{"prefcode":37,"prefname":"香川県","citycode":37324,"cityname":"小豆郡小豆島町"},"geometry":{"coordinates":[134.29326,34.484594],"type":"Point"}}
,{"type":"Feature","properties":{"prefcode":37,"prefname":"香川県","citycode":37208,"cityname":"三豊市"},"geometry":{"coordinates":[133.71485,34.170116],"type":"Point"}}
,{"type":"Feature","properties":{"prefcode":37,"prefname":"香川県","citycode":37322,"cityname":"小豆郡土庄町"},"geometry":{"coordinates":[134.19160,34.505990],"type":"Point"}}
,{"type":"Feature","properties":{"prefcode":37,"prefname":"香川県","citycode":37207,"cityname":"東かがわ市"},"geometry":{"coordinates":[134.33289,34.211453],"type":"Point"}}
,{"type":"Feature","properties":{"prefcode":37,"prefname":"香川県","citycode":37206,"cityname":"さぬき市"},"geometry":{"coordinates":[134.21513,34.267851],"type":"Point"}}
,{"type":"Feature","properties":{"prefcode":37,"prefname":"香川県","citycode":37205,"cityname":"観音寺市"},"geometry":{"coordinates":[133.66542,34.081439],"type":"Point"}}
,{"type":"Feature","properties":{"prefcode":37,"prefname":"香川県","citycode":37204,"cityname":"善通寺市"},"geometry":{"coordinates":[133.77866,34.224713],"type":"Point"}}
,{"type":"Feature","properties":{"prefcode":37,"prefname":"香川県","citycode":37387,"cityname":"綾歌郡綾川町"},"geometry":{"coordinates":[133.96278,34.209764],"type":"Point"}}
,{"type":"Feature","properties":{"prefcode":37,"prefname":"香川県","citycode":37364,"cityname":"香川郡直島町"},"geometry":{"coordinates":[133.98929,34.473413],"type":"Point"}}
,{"type":"Feature","properties":{"prefcode":37,"prefname":"香川県","citycode":37341,"cityname":"木田郡三木町"},"geometry":{"coordinates":[134.13805,34.233859],"type":"Point"}}
,{"type":"Feature","properties":{"prefcode":37,"prefname":"香川県","citycode":37203,"cityname":"坂出市"},"geometry":{"coordinates":[133.88057,34.333022],"type":"Point"}}
,{"type":"Feature","properties":{"prefcode":37,"prefname":"香川県","citycode":37386,"cityname":"綾歌郡宇多津町"},"geometry":{"coordinates":[133.82730,34.310746],"type":"Point"}}
,{"type":"Feature","properties":{"prefcode":37,"prefname":"香川県","citycode":37202,"cityname":"丸亀市"},"geometry":{"coordinates":[133.79691,34.302013],"type":"Point"}}
,{"type":"Feature","properties":{"prefcode":37,"prefname":"香川県","citycode":37201,"cityname":"高松市"},"geometry":{"coordinates":[134.05451,34.279239],"type":"Point"}}
,{"type":"Feature","properties":{"prefcode":37,"prefname":"香川県","citycode":37406,"cityname":"仲多度郡まんのう町"},"geometry":{"coordinates":[133.91280,34.140951],"type":"Point"}}
,{"type":"Feature","properties":{"prefcode":37,"prefname":"香川県","citycode":37404,"cityname":"仲多度郡多度津町"},"geometry":{"coordinates":[133.71293,34.279310],"type":"Point"}}
,{"type":"Feature","properties":{"prefcode":37,"prefname":"香川県","citycode":37403,"cityname":"仲多度郡琴平町"},"geometry":{"coordinates":[133.81597,34.195833],"type":"Point"}}
]}