{"type":"FeatureCollection","crs":{"type":"name","properties":{"name":"urn:ogc:def:crs:OGC:1.3:CRS84"}},"features":[{"type":"Feature","properties":{"prefcode":29,"prefname":"奈良県","citycode":29449,"cityname":"吉野郡十津川村"},"geometry":{"coordinates":[135.76292,34.009614],"type":"Point"}}
,{"type":"Feature","properties":{"prefcode":29,"prefname":"奈良県","citycode":29447,"cityname":"吉野郡野迫川村"},"geometry":{"coordinates":[135.64389,34.136419],"type":"Point"}}
,{"type":"Feature","properties":{"prefcode":29,"prefname":"奈良県","citycode":29446,"cityname":"吉野郡天川村"},"geometry":{"coordinates":[135.86704,34.227297],"type":"Point"}}
,{"type":"Feature","properties":{"prefcode":29,"prefname":"奈良県","citycode":29444,"cityname":"吉野郡黒滝村"},"geometry":{"coordinates":[135.86529,34.307500],"type":"Point"}}
,{"type":"Feature","properties":{"prefcode":29,"prefname":"奈良県","citycode":29443,"cityname":"吉野郡下市町"},"geometry":{"coordinates":[135.80747,34.338313],"type":"Point"}}
,{"type":"Feature","properties":{"prefcode":29,"prefname":"奈良県","citycode":29442,"cityname":"吉野郡大淀町"},"geometry":{"coordinates":[135.79977,34.404012],"type":"Point"}}
,{"type":"Feature","properties":{"prefcode":29,"prefname":"奈良県","citycode":29441,"cityname":"吉野郡吉野町"},"geometry":{"coordinates":[135.89446,34.398858],"type":"Point"}}
,{"type":"Feature","properties":{"prefcode":29,"prefname":"奈良県","citycode":29345,"cityname":"生駒郡安堵町"},"geometry":{"coordinates":[135.75750,34.603333],"type":"Point"}}
,{"type":"Feature","properties":{"prefcode":29,"prefname":"奈良県","citycode":29344,"cityname":"生駒郡斑鳩町"},"geometry":{"coordinates":[135.72986,34.614043],"type":"Point"}}
,{"type":"Feature","properties":{"prefcode":29,"prefname":"奈良県","citycode":29343,"cityname":"生駒郡三郷町"},"geometry":{"coordinates":[135.68203,34.603125],"type":"Point"}}
,{"type":"Feature","properties":{"prefcode":29,"prefname":"奈良県","citycode":29342,"cityname":"生駒郡平群町"},"geometry":{"coordinates":[135.68646,34.631250],"type":"Point"}}
,{"type":"Feature","properties":{"prefcode":29,"prefname":"奈良県","citycode":29427,"cityname":"北葛城郡河合町"},"geometry":{"coordinates":[135.73438,34.579583],"type":"Point"}}
,{"type":"Feature","properties":{"prefcode":29,"prefname":"奈良県","citycode":29426,"cityname":"北葛城郡広陵町"},"geometry":{"coordinates":[135.74777,34.552083],"type":"Point"}}
,{"type":"Feature","properties":{"prefcode":29,"prefname":"奈良県","citycode":29425,"cityname":"北葛城郡王寺町"},"geometry":{"coordinates":[135.69522,34.585049],"type":"Point"}}
,{"type":"Feature","properties":{"prefcode":29,"prefname":"奈良県","citycode":29424,"cityname":"北葛城郡上牧町"},"geometry":{"coordinates":[135.71786,34.563690],"type":"Point"}}
,{"type":"Feature","properties":{"prefcode":29,"prefname":"奈良県","citycode":29322,"cityname":"山辺郡山添村"},"geometry":{"coordinates":[136.02554,34.663678],"type":"Point"}}
,{"type":"Feature","properties":{"prefcode":29,"prefname":"奈良県","citycode":29212,"cityname":"宇陀市"},"geometry":{"coordinates":[135.99836,34.523260],"type":"Point"}}
,{"type":"Feature","properties":{"prefcode":29,"prefname":"奈良県","citycode":29402,"cityname":"高市郡明日香村"},"geometry":{"coordinates":[135.82679,34.461111],"type":"Point"}}
,{"type":"Feature","properties":{"prefcode":29,"prefname":"奈良県","citycode":29211,"cityname":"葛城市"},"geometry":{"coordinates":[135.70525,34.497333],"type":"Point"}}
,{"type":"Feature","properties":{"prefcode":29,"prefname":"奈良県","citycode":29401,"cityname":"高市郡高取町"},"geometry":{"coordinates":[135.79680,34.437703],"type":"Point"}}
,{"type":"Feature","properties":{"prefcode":29,"prefname":"奈良県","citycode":29210,"cityname":"香芝市"},"geometry":{"coordinates":[135.69125,34.547708],"type":"Point"}}
,{"type":"Feature","properties":{"prefcode":29,"prefname":"奈良県","citycode":29209,"cityname":"生駒市"},"geometry":{"coordinates":[135.70965,34.708385],"type":"Point"}}
,{"type":"Feature","properties":{"prefcode":29,"prefname":"奈良県","citycode":29208,"cityname":"御所市"},"geometry":{"coordinates":[135.72207,34.432964],"type":"Point"}}
,{"type":"Feature","properties":{"prefcode":29,"prefname":"奈良県","citycode":29207,"cityname":"五條市"},"geometry":{"coordinates":[135.75172,34.249473],"type":"Point"}}
,{"type":"Feature","properties":{"prefcode":29,"prefname":"奈良県","citycode":29206,"cityname":"桜井市"},"geometry":{"coordinates":[135.87958,34.521555],"type":"Point"}}
,{"type":"Feature","properties":{"prefcode":29,"prefname":"奈良県","citycode":29205,"cityname":"橿原市"},"geometry":{"coordinates":[135.79052,34.502155],"type":"Point"}}
,{"type":"Feature","properties":{"prefcode":29,"prefname":"奈良県","citycode":29204,"cityname":"天理市"},"geometry":{"coordinates":[135.86570,34.597234],"type":"Point"}}
,{"type":"Feature","properties":{"prefcode":29,"prefname":"奈良県","citycode":29203,"cityname":"大和郡山市"},"geometry":{"coordinates":[135.77489,34.633114],"type":"Point"}}
,{"type":"Feature","properties":{"prefcode":29,"prefname":"奈良県","citycode":29202,"cityname":"大和高田市"},"geometry":{"coordinates":[135.74423,34.508013],"type":"Point"}}
,{"type":"Feature","properties":{"prefcode":29,"prefname":"奈良県","citycode":29201,"cityname":"奈良市"},"geometry":{"coordinates":[135.89679,34.673326],"type":"Point"}}
,{"type":"Feature","properties":{"prefcode":29,"prefname":"奈良県","citycode":29386,"cityname":"宇陀郡御杖村"},"geometry":{"coordinates":[136.16009,34.478259],"type":"Point"}}
,{"type":"Feature","properties":{"prefcode":29,"prefname":"奈良県","citycode":29385,"cityname":"宇陀郡曽爾村"},"geometry":{"coordinates":[136.12192,34.518838],"type":"Point"}}
,{"type":"Feature","properties":{"prefcode":29,"prefname":"奈良県","citycode":29363,"cityname":"磯城郡田原本町"},"geometry":{"coordinates":[135.79522,34.555882],"type":"Point"}}
,{"type":"Feature","properties":{"prefcode":29,"prefname":"奈良県","citycode":29362,"cityname":"磯城郡三宅町"},"geometry":{"coordinates":[135.77431,34.573611],"type":"Point"}}
,{"type":"Feature","properties":{"prefcode":29,"prefname":"奈良県","citycode":29361,"cityname":"磯城郡川西町"},"geometry":{"coordinates":[135.77083,34.588194],"type":"Point"}}
,{"type":"Feature","properties":{"prefcode":29,"prefname":"奈良県","citycode":29453,"cityname":"吉野郡東吉野村"},"geometry":{"coordinates":[136.02721,34.406548],"type":"Point"}}
,{"type":"Feature","properties":{"prefcode":29,"prefname":"奈良県","citycode":29452,"cityname":"吉野郡川上村"},"geometry":{"coordinates":[136.02054,34.292739],"type":"Point"}}
,{"type":"Feature","properties":{"prefcode":29,"prefname":"奈良県","citycode":29451,"cityname":"吉野郡上北山村"},"geometry":{"coordinates":[136.02184,34.136455],"type":"Point"}}
,{"type":"Feature","properties":{"prefcode":29,"prefname":"奈良県","citycode":29450,"cityname":"吉野郡下北山村"},"geometry":{"coordinates":[135.95473,34.045227],"type":"Point"}}
]}