{"type":"FeatureCollection","crs":{"type":"name","properties":{"name":"urn:ogc:def:crs:OGC:1.3:CRS84"}},"features":[{"type":"Feature","properties":{"prefcode":24,"prefname":"三重県","citycode":24204,"cityname":"松阪市"},"geometry":{"coordinates":[136.35612,34.485256],"type":"Point"}}
,{"type":"Feature","properties":{"prefcode":24,"prefname":"三重県","citycode":24344,"cityname":"三重郡川越町"},"geometry":{"coordinates":[136.67917,35.019907],"type":"Point"}}
,{"type":"Feature","properties":{"prefcode":24,"prefname":"三重県","citycode":24203,"cityname":"伊勢市"},"geometry":{"coordinates":[136.71465,34.469104],"type":"Point"}}
,{"type":"Feature","properties":{"prefcode":24,"prefname":"三重県","citycode":24343,"cityname":"三重郡朝日町"},"geometry":{"coordinates":[136.66202,35.036218],"type":"Point"}}
,{"type":"Feature","properties":{"prefcode":24,"prefname":"三重県","citycode":24202,"cityname":"四日市市"},"geometry":{"coordinates":[136.57386,34.982372],"type":"Point"}}
,{"type":"Feature","properties":{"prefcode":24,"prefname":"三重県","citycode":24201,"cityname":"津市"},"geometry":{"coordinates":[136.36639,34.659558],"type":"Point"}}
,{"type":"Feature","properties":{"prefcode":24,"prefname":"三重県","citycode":24341,"cityname":"三重郡菰野町"},"geometry":{"coordinates":[136.48492,35.039380],"type":"Point"}}
,{"type":"Feature","properties":{"prefcode":24,"prefname":"三重県","citycode":24472,"cityname":"度会郡南伊勢町"},"geometry":{"coordinates":[136.58750,34.307727],"type":"Point"}}
,{"type":"Feature","properties":{"prefcode":24,"prefname":"三重県","citycode":24471,"cityname":"度会郡大紀町"},"geometry":{"coordinates":[136.41291,34.314836],"type":"Point"}}
,{"type":"Feature","properties":{"prefcode":24,"prefname":"三重県","citycode":24470,"cityname":"度会郡度会町"},"geometry":{"coordinates":[136.58056,34.391667],"type":"Point"}}
,{"type":"Feature","properties":{"prefcode":24,"prefname":"三重県","citycode":24562,"cityname":"南牟婁郡紀宝町"},"geometry":{"coordinates":[135.96973,33.772059],"type":"Point"}}
,{"type":"Feature","properties":{"prefcode":24,"prefname":"三重県","citycode":24561,"cityname":"南牟婁郡御浜町"},"geometry":{"coordinates":[136.00884,33.840803],"type":"Point"}}
,{"type":"Feature","properties":{"prefcode":24,"prefname":"三重県","citycode":24324,"cityname":"員弁郡東員町"},"geometry":{"coordinates":[136.59003,35.079617],"type":"Point"}}
,{"type":"Feature","properties":{"prefcode":24,"prefname":"三重県","citycode":24461,"cityname":"度会郡玉城町"},"geometry":{"coordinates":[136.62198,34.482392],"type":"Point"}}
,{"type":"Feature","properties":{"prefcode":24,"prefname":"三重県","citycode":24216,"cityname":"伊賀市"},"geometry":{"coordinates":[136.18471,34.749393],"type":"Point"}}
,{"type":"Feature","properties":{"prefcode":24,"prefname":"三重県","citycode":24215,"cityname":"志摩市"},"geometry":{"coordinates":[136.81469,34.332185],"type":"Point"}}
,{"type":"Feature","properties":{"prefcode":24,"prefname":"三重県","citycode":24543,"cityname":"北牟婁郡紀北町"},"geometry":{"coordinates":[136.24714,34.171812],"type":"Point"}}
,{"type":"Feature","properties":{"prefcode":24,"prefname":"三重県","citycode":24214,"cityname":"いなべ市"},"geometry":{"coordinates":[136.50846,35.160958],"type":"Point"}}
,{"type":"Feature","properties":{"prefcode":24,"prefname":"三重県","citycode":24212,"cityname":"熊野市"},"geometry":{"coordinates":[136.02667,33.920871],"type":"Point"}}
,{"type":"Feature","properties":{"prefcode":24,"prefname":"三重県","citycode":24211,"cityname":"鳥羽市"},"geometry":{"coordinates":[136.86453,34.455843],"type":"Point"}}
,{"type":"Feature","properties":{"prefcode":24,"prefname":"三重県","citycode":24210,"cityname":"亀山市"},"geometry":{"coordinates":[136.39397,34.868165],"type":"Point"}}
,{"type":"Feature","properties":{"prefcode":24,"prefname":"三重県","citycode":24209,"cityname":"尾鷲市"},"geometry":{"coordinates":[136.19037,34.037822],"type":"Point"}}
,{"type":"Feature","properties":{"prefcode":24,"prefname":"三重県","citycode":24303,"cityname":"桑名郡木曽岬町"},"geometry":{"coordinates":[136.74219,35.062240],"type":"Point"}}
,{"type":"Feature","properties":{"prefcode":24,"prefname":"三重県","citycode":24443,"cityname":"多気郡大台町"},"geometry":{"coordinates":[136.27119,34.318818],"type":"Point"}}
,{"type":"Feature","properties":{"prefcode":24,"prefname":"三重県","citycode":24208,"cityname":"名張市"},"geometry":{"coordinates":[136.11722,34.609637],"type":"Point"}}
,{"type":"Feature","properties":{"prefcode":24,"prefname":"三重県","citycode":24442,"cityname":"多気郡明和町"},"geometry":{"coordinates":[136.62621,34.551479],"type":"Point"}}
,{"type":"Feature","properties":{"prefcode":24,"prefname":"三重県","citycode":24207,"cityname":"鈴鹿市"},"geometry":{"coordinates":[136.51976,34.890975],"type":"Point"}}
,{"type":"Feature","properties":{"prefcode":24,"prefname":"三重県","citycode":24441,"cityname":"多気郡多気町"},"geometry":{"coordinates":[136.49981,34.469838],"type":"Point"}}
,{"type":"Feature","properties":{"prefcode":24,"prefname":"三重県","citycode":24205,"cityname":"桑名市"},"geometry":{"coordinates":[136.65517,35.094971],"type":"Point"}}
]}