{"type":"FeatureCollection","crs":{"type":"name","properties":{"name":"urn:ogc:def:crs:OGC:1.3:CRS84"}},"features":[{"type":"Feature","properties":{"prefcode":32,"prefname":"島根県","citycode":32505,"cityname":"鹿足郡吉賀町"},"geometry":{"coordinates":[131.89530,34.395877],"type":"Point"}}
,{"type":"Feature","properties":{"prefcode":32,"prefname":"島根県","citycode":32501,"cityname":"鹿足郡津和野町"},"geometry":{"coordinates":[131.81147,34.513684],"type":"Point"}}
,{"type":"Feature","properties":{"prefcode":32,"prefname":"島根県","citycode":32449,"cityname":"邑智郡邑南町"},"geometry":{"coordinates":[132.50190,34.876916],"type":"Point"}}
,{"type":"Feature","properties":{"prefcode":32,"prefname":"島根県","citycode":32448,"cityname":"邑智郡美郷町"},"geometry":{"coordinates":[132.59994,35.028913],"type":"Point"}}
,{"type":"Feature","properties":{"prefcode":32,"prefname":"島根県","citycode":32209,"cityname":"雲南市"},"geometry":{"coordinates":[132.89497,35.242329],"type":"Point"}}
,{"type":"Feature","properties":{"prefcode":32,"prefname":"島根県","citycode":32207,"cityname":"江津市"},"geometry":{"coordinates":[132.29670,34.973978],"type":"Point"}}
,{"type":"Feature","properties":{"prefcode":32,"prefname":"島根県","citycode":32206,"cityname":"安来市"},"geometry":{"coordinates":[133.19932,35.334149],"type":"Point"}}
,{"type":"Feature","properties":{"prefcode":32,"prefname":"島根県","citycode":32441,"cityname":"邑智郡川本町"},"geometry":{"coordinates":[132.47853,34.990338],"type":"Point"}}
,{"type":"Feature","properties":{"prefcode":32,"prefname":"島根県","citycode":32205,"cityname":"大田市"},"geometry":{"coordinates":[132.49495,35.134341],"type":"Point"}}
,{"type":"Feature","properties":{"prefcode":32,"prefname":"島根県","citycode":32204,"cityname":"益田市"},"geometry":{"coordinates":[131.94169,34.624102],"type":"Point"}}
,{"type":"Feature","properties":{"prefcode":32,"prefname":"島根県","citycode":32203,"cityname":"出雲市"},"geometry":{"coordinates":[132.75297,35.345601],"type":"Point"}}
,{"type":"Feature","properties":{"prefcode":32,"prefname":"島根県","citycode":32202,"cityname":"浜田市"},"geometry":{"coordinates":[132.14089,34.822571],"type":"Point"}}
,{"type":"Feature","properties":{"prefcode":32,"prefname":"島根県","citycode":32343,"cityname":"仁多郡奥出雲町"},"geometry":{"coordinates":[133.04176,35.157549],"type":"Point"}}
,{"type":"Feature","properties":{"prefcode":32,"prefname":"島根県","citycode":32201,"cityname":"松江市"},"geometry":{"coordinates":[133.07227,35.472292],"type":"Point"}}
,{"type":"Feature","properties":{"prefcode":32,"prefname":"島根県","citycode":32528,"cityname":"隠岐郡隠岐の島町"},"geometry":{"coordinates":[133.25920,36.262176],"type":"Point"}}
,{"type":"Feature","properties":{"prefcode":32,"prefname":"島根県","citycode":32527,"cityname":"隠岐郡知夫村"},"geometry":{"coordinates":[133.03616,36.011310],"type":"Point"}}
,{"type":"Feature","properties":{"prefcode":32,"prefname":"島根県","citycode":32386,"cityname":"飯石郡飯南町"},"geometry":{"coordinates":[132.73603,35.061618],"type":"Point"}}
,{"type":"Feature","properties":{"prefcode":32,"prefname":"島根県","citycode":32526,"cityname":"隠岐郡西ノ島町"},"geometry":{"coordinates":[133.01553,36.096263],"type":"Point"}}
,{"type":"Feature","properties":{"prefcode":32,"prefname":"島根県","citycode":32525,"cityname":"隠岐郡海士町"},"geometry":{"coordinates":[133.10721,36.085064],"type":"Point"}}
]}