{"type":"FeatureCollection","crs":{"type":"name","properties":{"name":"urn:ogc:def:crs:OGC:1.3:CRS84"}},"features":[{"type":"Feature","properties":{"prefcode":20,"prefname":"広島県","citycode":34309,"cityname":"安芸郡坂町"},"geometry":{"coordinates":[132.51181,34.325154],"type":"Point"}}
,{"type":"Feature","properties":{"prefcode":20,"prefname":"広島県","citycode":34215,"cityname":"江田島市"},"geometry":{"coordinates":[132.43657,34.214272],"type":"Point"}}
,{"type":"Feature","properties":{"prefcode":20,"prefname":"広島県","citycode":34214,"cityname":"安芸高田市"},"geometry":{"coordinates":[132.67651,34.701762],"type":"Point"}}
,{"type":"Feature","properties":{"prefcode":20,"prefname":"広島県","citycode":34307,"cityname":"安芸郡熊野町"},"geometry":{"coordinates":[132.59375,34.344592],"type":"Point"}}
,{"type":"Feature","properties":{"prefcode":20,"prefname":"広島県","citycode":34213,"cityname":"廿日市市"},"geometry":{"coordinates":[132.18935,34.394860],"type":"Point"}}
,{"type":"Feature","properties":{"prefcode":20,"prefname":"広島県","citycode":34212,"cityname":"東広島市"},"geometry":{"coordinates":[132.76236,34.444127],"type":"Point"}}
,{"type":"Feature","properties":{"prefcode":20,"prefname":"広島県","citycode":34211,"cityname":"大竹市"},"geometry":{"coordinates":[132.19435,34.262231],"type":"Point"}}
,{"type":"Feature","properties":{"prefcode":20,"prefname":"広島県","citycode":34304,"cityname":"安芸郡海田町"},"geometry":{"coordinates":[132.55175,34.366167],"type":"Point"}}
,{"type":"Feature","properties":{"prefcode":20,"prefname":"広島県","citycode":34210,"cityname":"庄原市"},"geometry":{"coordinates":[133.06607,34.944595],"type":"Point"}}
,{"type":"Feature","properties":{"prefcode":20,"prefname":"広島県","citycode":34209,"cityname":"三次市"},"geometry":{"coordinates":[132.86553,34.793030],"type":"Point"}}
,{"type":"Feature","properties":{"prefcode":20,"prefname":"広島県","citycode":34302,"cityname":"安芸郡府中町"},"geometry":{"coordinates":[132.51761,34.396591],"type":"Point"}}
,{"type":"Feature","properties":{"prefcode":20,"prefname":"広島県","citycode":34208,"cityname":"府中市"},"geometry":{"coordinates":[133.17355,34.638414],"type":"Point"}}
,{"type":"Feature","properties":{"prefcode":20,"prefname":"広島県","citycode":34207,"cityname":"福山市"},"geometry":{"coordinates":[133.33611,34.514842],"type":"Point"}}
,{"type":"Feature","properties":{"prefcode":20,"prefname":"広島県","citycode":34205,"cityname":"尾道市"},"geometry":{"coordinates":[133.16612,34.418904],"type":"Point"}}
,{"type":"Feature","properties":{"prefcode":20,"prefname":"広島県","citycode":34204,"cityname":"三原市"},"geometry":{"coordinates":[133.00658,34.454371],"type":"Point"}}
,{"type":"Feature","properties":{"prefcode":20,"prefname":"広島県","citycode":34203,"cityname":"竹原市"},"geometry":{"coordinates":[132.88602,34.366136],"type":"Point"}}
,{"type":"Feature","properties":{"prefcode":20,"prefname":"広島県","citycode":34202,"cityname":"呉市"},"geometry":{"coordinates":[132.63263,34.209508],"type":"Point"}}
,{"type":"Feature","properties":{"prefcode":20,"prefname":"広島県","citycode":34108,"cityname":"広島市佐伯区"},"geometry":{"coordinates":[132.29750,34.456363],"type":"Point"}}
,{"type":"Feature","properties":{"prefcode":20,"prefname":"広島県","citycode":34107,"cityname":"広島市安芸区"},"geometry":{"coordinates":[132.58736,34.393543],"type":"Point"}}
,{"type":"Feature","properties":{"prefcode":20,"prefname":"広島県","citycode":34106,"cityname":"広島市安佐北区"},"geometry":{"coordinates":[132.52676,34.535585],"type":"Point"}}
,{"type":"Feature","properties":{"prefcode":20,"prefname":"広島県","citycode":34105,"cityname":"広島市安佐南区"},"geometry":{"coordinates":[132.40912,34.469144],"type":"Point"}}
,{"type":"Feature","properties":{"prefcode":20,"prefname":"広島県","citycode":34104,"cityname":"広島市西区"},"geometry":{"coordinates":[132.41693,34.394470],"type":"Point"}}
,{"type":"Feature","properties":{"prefcode":20,"prefname":"広島県","citycode":34103,"cityname":"広島市南区"},"geometry":{"coordinates":[132.46678,34.349781],"type":"Point"}}
,{"type":"Feature","properties":{"prefcode":20,"prefname":"広島県","citycode":34431,"cityname":"豊田郡大崎上島町"},"geometry":{"coordinates":[132.88989,34.250051],"type":"Point"}}
,{"type":"Feature","properties":{"prefcode":20,"prefname":"広島県","citycode":34102,"cityname":"広島市東区"},"geometry":{"coordinates":[132.51358,34.427011],"type":"Point"}}
,{"type":"Feature","properties":{"prefcode":20,"prefname":"広島県","citycode":34101,"cityname":"広島市中区"},"geometry":{"coordinates":[132.44760,34.381410],"type":"Point"}}
,{"type":"Feature","properties":{"prefcode":20,"prefname":"広島県","citycode":34369,"cityname":"山県郡北広島町"},"geometry":{"coordinates":[132.39772,34.706699],"type":"Point"}}
,{"type":"Feature","properties":{"prefcode":20,"prefname":"広島県","citycode":34462,"cityname":"世羅郡世羅町"},"geometry":{"coordinates":[133.01394,34.614366],"type":"Point"}}
,{"type":"Feature","properties":{"prefcode":20,"prefname":"広島県","citycode":34368,"cityname":"山県郡安芸太田町"},"geometry":{"coordinates":[132.25628,34.603435],"type":"Point"}}
,{"type":"Feature","properties":{"prefcode":20,"prefname":"広島県","citycode":34545,"cityname":"神石郡神石高原町"},"geometry":{"coordinates":[133.26097,34.755216],"type":"Point"}}
]}