{"type":"FeatureCollection","crs":{"type":"name","properties":{"name":"urn:ogc:def:crs:OGC:1.3:CRS84"}},"features":[{"type":"Feature","properties":{"prefcode":38,"prefname":"愛媛県","citycode":38210,"cityname":"伊予市"},"geometry":{"coordinates":[132.68639,33.681886],"type":"Point"}}
,{"type":"Feature","properties":{"prefcode":38,"prefname":"愛媛県","citycode":38207,"cityname":"大洲市"},"geometry":{"coordinates":[132.60149,33.522370],"type":"Point"}}
,{"type":"Feature","properties":{"prefcode":38,"prefname":"愛媛県","citycode":38442,"cityname":"西宇和郡伊方町"},"geometry":{"coordinates":[132.21281,33.432665],"type":"Point"}}
,{"type":"Feature","properties":{"prefcode":38,"prefname":"愛媛県","citycode":38488,"cityname":"北宇和郡鬼北町"},"geometry":{"coordinates":[132.74923,33.300030],"type":"Point"}}
,{"type":"Feature","properties":{"prefcode":38,"prefname":"愛媛県","citycode":38206,"cityname":"西条市"},"geometry":{"coordinates":[133.11249,33.861418],"type":"Point"}}
,{"type":"Feature","properties":{"prefcode":38,"prefname":"愛媛県","citycode":38205,"cityname":"新居浜市"},"geometry":{"coordinates":[133.33143,33.902837],"type":"Point"}}
,{"type":"Feature","properties":{"prefcode":38,"prefname":"愛媛県","citycode":38204,"cityname":"八幡浜市"},"geometry":{"coordinates":[132.42426,33.464830],"type":"Point"}}
,{"type":"Feature","properties":{"prefcode":38,"prefname":"愛媛県","citycode":38203,"cityname":"宇和島市"},"geometry":{"coordinates":[132.52944,33.176168],"type":"Point"}}
,{"type":"Feature","properties":{"prefcode":38,"prefname":"愛媛県","citycode":38484,"cityname":"北宇和郡松野町"},"geometry":{"coordinates":[132.71363,33.206660],"type":"Point"}}
,{"type":"Feature","properties":{"prefcode":38,"prefname":"愛媛県","citycode":38202,"cityname":"今治市"},"geometry":{"coordinates":[132.98334,34.094005],"type":"Point"}}
,{"type":"Feature","properties":{"prefcode":38,"prefname":"愛媛県","citycode":38201,"cityname":"松山市"},"geometry":{"coordinates":[132.76642,33.891067],"type":"Point"}}
,{"type":"Feature","properties":{"prefcode":38,"prefname":"愛媛県","citycode":38386,"cityname":"上浮穴郡久万高原町"},"geometry":{"coordinates":[132.98463,33.635366],"type":"Point"}}
,{"type":"Feature","properties":{"prefcode":38,"prefname":"愛媛県","citycode":38422,"cityname":"喜多郡内子町"},"geometry":{"coordinates":[132.75701,33.569894],"type":"Point"}}
,{"type":"Feature","properties":{"prefcode":38,"prefname":"愛媛県","citycode":38506,"cityname":"南宇和郡愛南町"},"geometry":{"coordinates":[132.56113,32.985410],"type":"Point"}}
,{"type":"Feature","properties":{"prefcode":38,"prefname":"愛媛県","citycode":38215,"cityname":"東温市"},"geometry":{"coordinates":[132.92581,33.802388],"type":"Point"}}
,{"type":"Feature","properties":{"prefcode":38,"prefname":"愛媛県","citycode":38356,"cityname":"越智郡上島町"},"geometry":{"coordinates":[133.21401,34.242864],"type":"Point"}}
,{"type":"Feature","properties":{"prefcode":38,"prefname":"愛媛県","citycode":38214,"cityname":"西予市"},"geometry":{"coordinates":[132.63231,33.395905],"type":"Point"}}
,{"type":"Feature","properties":{"prefcode":38,"prefname":"愛媛県","citycode":38402,"cityname":"伊予郡砥部町"},"geometry":{"coordinates":[132.78814,33.696998],"type":"Point"}}
,{"type":"Feature","properties":{"prefcode":38,"prefname":"愛媛県","citycode":38213,"cityname":"四国中央市"},"geometry":{"coordinates":[133.53735,33.935747],"type":"Point"}}
,{"type":"Feature","properties":{"prefcode":38,"prefname":"愛媛県","citycode":38401,"cityname":"伊予郡松前町"},"geometry":{"coordinates":[132.72750,33.791111],"type":"Point"}}
]}