{"type":"FeatureCollection","crs":{"type":"name","properties":{"name":"urn:ogc:def:crs:OGC:1.3:CRS84"}},"features":[{"type":"Feature","properties":{"prefcode":21,"prefname":"岐阜県","citycode":21362,"cityname":"不破郡関ケ原町"},"geometry":{"coordinates":[136.44713,35.348198],"type":"Point"}}
,{"type":"Feature","properties":{"prefcode":21,"prefname":"岐阜県","citycode":21361,"cityname":"不破郡垂井町"},"geometry":{"coordinates":[136.51776,35.386184],"type":"Point"}}
,{"type":"Feature","properties":{"prefcode":21,"prefname":"岐阜県","citycode":21341,"cityname":"養老郡養老町"},"geometry":{"coordinates":[136.56337,35.290667],"type":"Point"}}
,{"type":"Feature","properties":{"prefcode":21,"prefname":"岐阜県","citycode":21521,"cityname":"可児郡御嵩町"},"geometry":{"coordinates":[137.15160,35.433654],"type":"Point"}}
,{"type":"Feature","properties":{"prefcode":21,"prefname":"岐阜県","citycode":21421,"cityname":"本巣郡北方町"},"geometry":{"coordinates":[136.68750,35.429167],"type":"Point"}}
,{"type":"Feature","properties":{"prefcode":21,"prefname":"岐阜県","citycode":21604,"cityname":"大野郡白川村"},"geometry":{"coordinates":[136.87850,36.221204],"type":"Point"}}
,{"type":"Feature","properties":{"prefcode":21,"prefname":"岐阜県","citycode":21507,"cityname":"加茂郡東白川村"},"geometry":{"coordinates":[137.33605,35.642336],"type":"Point"}}
,{"type":"Feature","properties":{"prefcode":21,"prefname":"岐阜県","citycode":21506,"cityname":"加茂郡白川町"},"geometry":{"coordinates":[137.26483,35.608900],"type":"Point"}}
,{"type":"Feature","properties":{"prefcode":21,"prefname":"岐阜県","citycode":21221,"cityname":"海津市"},"geometry":{"coordinates":[136.62332,35.216580],"type":"Point"}}
,{"type":"Feature","properties":{"prefcode":21,"prefname":"岐阜県","citycode":21505,"cityname":"加茂郡八百津町"},"geometry":{"coordinates":[137.18531,35.499844],"type":"Point"}}
,{"type":"Feature","properties":{"prefcode":21,"prefname":"岐阜県","citycode":21220,"cityname":"下呂市"},"geometry":{"coordinates":[137.23893,35.841257],"type":"Point"}}
,{"type":"Feature","properties":{"prefcode":21,"prefname":"岐阜県","citycode":21504,"cityname":"加茂郡七宗町"},"geometry":{"coordinates":[137.11309,35.576674],"type":"Point"}}
,{"type":"Feature","properties":{"prefcode":21,"prefname":"岐阜県","citycode":21219,"cityname":"郡上市"},"geometry":{"coordinates":[136.94446,35.835550],"type":"Point"}}
,{"type":"Feature","properties":{"prefcode":21,"prefname":"岐阜県","citycode":21503,"cityname":"加茂郡川辺町"},"geometry":{"coordinates":[137.07938,35.509639],"type":"Point"}}
,{"type":"Feature","properties":{"prefcode":21,"prefname":"岐阜県","citycode":21218,"cityname":"本巣市"},"geometry":{"coordinates":[136.62115,35.649625],"type":"Point"}}
,{"type":"Feature","properties":{"prefcode":21,"prefname":"岐阜県","citycode":21217,"cityname":"飛騨市"},"geometry":{"coordinates":[137.21008,36.333391],"type":"Point"}}
,{"type":"Feature","properties":{"prefcode":21,"prefname":"岐阜県","citycode":21502,"cityname":"加茂郡富加町"},"geometry":{"coordinates":[136.97923,35.492876],"type":"Point"}}
,{"type":"Feature","properties":{"prefcode":21,"prefname":"岐阜県","citycode":21216,"cityname":"瑞穂市"},"geometry":{"coordinates":[136.66997,35.397866],"type":"Point"}}
,{"type":"Feature","properties":{"prefcode":21,"prefname":"岐阜県","citycode":21501,"cityname":"加茂郡坂祝町"},"geometry":{"coordinates":[136.97625,35.433833],"type":"Point"}}
,{"type":"Feature","properties":{"prefcode":21,"prefname":"岐阜県","citycode":21215,"cityname":"山県市"},"geometry":{"coordinates":[136.74494,35.598939],"type":"Point"}}
,{"type":"Feature","properties":{"prefcode":21,"prefname":"岐阜県","citycode":21214,"cityname":"可児市"},"geometry":{"coordinates":[137.06875,35.407748],"type":"Point"}}
,{"type":"Feature","properties":{"prefcode":21,"prefname":"岐阜県","citycode":21404,"cityname":"揖斐郡池田町"},"geometry":{"coordinates":[136.55579,35.439043],"type":"Point"}}
,{"type":"Feature","properties":{"prefcode":21,"prefname":"岐阜県","citycode":21213,"cityname":"各務原市"},"geometry":{"coordinates":[136.87909,35.402727],"type":"Point"}}
,{"type":"Feature","properties":{"prefcode":21,"prefname":"岐阜県","citycode":21403,"cityname":"揖斐郡大野町"},"geometry":{"coordinates":[136.62593,35.464661],"type":"Point"}}
,{"type":"Feature","properties":{"prefcode":21,"prefname":"岐阜県","citycode":21212,"cityname":"土岐市"},"geometry":{"coordinates":[137.20772,35.325144],"type":"Point"}}
,{"type":"Feature","properties":{"prefcode":21,"prefname":"岐阜県","citycode":21211,"cityname":"美濃加茂市"},"geometry":{"coordinates":[137.02639,35.484877],"type":"Point"}}
,{"type":"Feature","properties":{"prefcode":21,"prefname":"岐阜県","citycode":21401,"cityname":"揖斐郡揖斐川町"},"geometry":{"coordinates":[136.45224,35.604147],"type":"Point"}}
,{"type":"Feature","properties":{"prefcode":21,"prefname":"岐阜県","citycode":21210,"cityname":"恵那市"},"geometry":{"coordinates":[137.41752,35.372626],"type":"Point"}}
,{"type":"Feature","properties":{"prefcode":21,"prefname":"岐阜県","citycode":21209,"cityname":"羽島市"},"geometry":{"coordinates":[136.70150,35.304636],"type":"Point"}}
,{"type":"Feature","properties":{"prefcode":21,"prefname":"岐阜県","citycode":21208,"cityname":"瑞浪市"},"geometry":{"coordinates":[137.27558,35.387656],"type":"Point"}}
,{"type":"Feature","properties":{"prefcode":21,"prefname":"岐阜県","citycode":21303,"cityname":"羽島郡笠松町"},"geometry":{"coordinates":[136.77135,35.365625],"type":"Point"}}
,{"type":"Feature","properties":{"prefcode":21,"prefname":"岐阜県","citycode":21207,"cityname":"美濃市"},"geometry":{"coordinates":[136.90157,35.580754],"type":"Point"}}
,{"type":"Feature","properties":{"prefcode":21,"prefname":"岐阜県","citycode":21302,"cityname":"羽島郡岐南町"},"geometry":{"coordinates":[136.78934,35.386029],"type":"Point"}}
,{"type":"Feature","properties":{"prefcode":21,"prefname":"岐阜県","citycode":21206,"cityname":"中津川市"},"geometry":{"coordinates":[137.47310,35.566997],"type":"Point"}}
,{"type":"Feature","properties":{"prefcode":21,"prefname":"岐阜県","citycode":21205,"cityname":"関市"},"geometry":{"coordinates":[136.87772,35.627911],"type":"Point"}}
,{"type":"Feature","properties":{"prefcode":21,"prefname":"岐阜県","citycode":21204,"cityname":"多治見市"},"geometry":{"coordinates":[137.11189,35.335587],"type":"Point"}}
,{"type":"Feature","properties":{"prefcode":21,"prefname":"岐阜県","citycode":21203,"cityname":"高山市"},"geometry":{"coordinates":[137.28177,36.130857],"type":"Point"}}
,{"type":"Feature","properties":{"prefcode":21,"prefname":"岐阜県","citycode":21202,"cityname":"大垣市"},"geometry":{"coordinates":[136.52688,35.315536],"type":"Point"}}
,{"type":"Feature","properties":{"prefcode":21,"prefname":"岐阜県","citycode":21201,"cityname":"岐阜市"},"geometry":{"coordinates":[136.76519,35.451400],"type":"Point"}}
,{"type":"Feature","properties":{"prefcode":21,"prefname":"岐阜県","citycode":21383,"cityname":"安八郡安八町"},"geometry":{"coordinates":[136.66648,35.339268],"type":"Point"}}
,{"type":"Feature","properties":{"prefcode":21,"prefname":"岐阜県","citycode":21382,"cityname":"安八郡輪之内町"},"geometry":{"coordinates":[136.63520,35.285088],"type":"Point"}}
,{"type":"Feature","properties":{"prefcode":21,"prefname":"岐阜県","citycode":21381,"cityname":"安八郡神戸町"},"geometry":{"coordinates":[136.61007,35.414120],"type":"Point"}}
]}